[
    {
        "_csv_row": "id",
        "airport_name": "airport_name",
        "city": "city",
        "country": "country",
        "iata": "iata",
        "icao": "icao",
        "latitude": 0,
        "longitude": 0,
        "elevation": 0,
        "utc_offset": 0,
        "_class": "_class",
        "timezone": "timezone"
    },
    {
        "_csv_row": "1",
        "airport_name": "Goroka",
        "city": "Goroka",
        "country": "Papua New Guinea",
        "iata": "GKA",
        "icao": "AYGA",
        "latitude": -6.081689,
        "longitude": 145.391881,
        "elevation": 5282,
        "utc_offset": 5282,
        "_class": "U",
        "timezone": "Pacific/Port_Moresby"
    },
    {
        "_csv_row": "2",
        "airport_name": "Madang",
        "city": "Madang",
        "country": "Papua New Guinea",
        "iata": "MAG",
        "icao": "AYMD",
        "latitude": -5.207083,
        "longitude": 145.7887,
        "elevation": 20,
        "utc_offset": 20,
        "_class": "U",
        "timezone": "Pacific/Port_Moresby"
    },
    {
        "_csv_row": "3",
        "airport_name": "Mount Hagen",
        "city": "Mount Hagen",
        "country": "Papua New Guinea",
        "iata": "HGU",
        "icao": "AYMH",
        "latitude": -5.826789,
        "longitude": 144.295861,
        "elevation": 5388,
        "utc_offset": 5388,
        "_class": "U",
        "timezone": "Pacific/Port_Moresby"
    },
    {
        "_csv_row": "4",
        "airport_name": "Nadzab",
        "city": "Nadzab",
        "country": "Papua New Guinea",
        "iata": "LAE",
        "icao": "AYNZ",
        "latitude": -6.569828,
        "longitude": 146.726242,
        "elevation": 239,
        "utc_offset": 239,
        "_class": "U",
        "timezone": "Pacific/Port_Moresby"
    },
    {
        "_csv_row": "5",
        "airport_name": "Port Moresby Jacksons Intl",
        "city": "Port Moresby",
        "country": "Papua New Guinea",
        "iata": "POM",
        "icao": "AYPY",
        "latitude": -9.443383,
        "longitude": 147.22005,
        "elevation": 146,
        "utc_offset": 146,
        "_class": "U",
        "timezone": "Pacific/Port_Moresby"
    },
    {
        "_csv_row": "6",
        "airport_name": "Wewak Intl",
        "city": "Wewak",
        "country": "Papua New Guinea",
        "iata": "WWK",
        "icao": "AYWK",
        "latitude": -3.583828,
        "longitude": 143.669186,
        "elevation": 19,
        "utc_offset": 19,
        "_class": "U",
        "timezone": "Pacific/Port_Moresby"
    },
    {
        "_csv_row": "7",
        "airport_name": "Narsarsuaq",
        "city": "Narssarssuaq",
        "country": "Greenland",
        "iata": "UAK",
        "icao": "BGBW",
        "latitude": 61.160517,
        "longitude": -45.425978,
        "elevation": 112,
        "utc_offset": 112,
        "_class": "E",
        "timezone": "America/Godthab"
    },
    {
        "_csv_row": "8",
        "airport_name": "Nuuk",
        "city": "Godthaab",
        "country": "Greenland",
        "iata": "GOH",
        "icao": "BGGH",
        "latitude": 64.190922,
        "longitude": -51.678064,
        "elevation": 283,
        "utc_offset": 283,
        "_class": "E",
        "timezone": "America/Godthab"
    },
    {
        "_csv_row": "9",
        "airport_name": "Sondre Stromfjord",
        "city": "Sondrestrom",
        "country": "Greenland",
        "iata": "SFJ",
        "icao": "BGSF",
        "latitude": 67.016969,
        "longitude": -50.689325,
        "elevation": 165,
        "utc_offset": 165,
        "_class": "E",
        "timezone": "America/Godthab"
    },
    {
        "_csv_row": "10",
        "airport_name": "Thule Air Base",
        "city": "Thule",
        "country": "Greenland",
        "iata": "THU",
        "icao": "BGTL",
        "latitude": 76.531203,
        "longitude": -68.703161,
        "elevation": 251,
        "utc_offset": 251,
        "_class": "E",
        "timezone": "America/Thule"
    },
    {
        "_csv_row": "11",
        "airport_name": "Akureyri",
        "city": "Akureyri",
        "country": "Iceland",
        "iata": "AEY",
        "icao": "BIAR",
        "latitude": 65.659994,
        "longitude": -18.072703,
        "elevation": 6,
        "utc_offset": 6,
        "_class": "N",
        "timezone": "Atlantic/Reykjavik"
    },
    {
        "_csv_row": "12",
        "airport_name": "Egilsstadir",
        "city": "Egilsstadir",
        "country": "Iceland",
        "iata": "EGS",
        "icao": "BIEG",
        "latitude": 65.283333,
        "longitude": -14.401389,
        "elevation": 76,
        "utc_offset": 76,
        "_class": "N",
        "timezone": "Atlantic/Reykjavik"
    },
    {
        "_csv_row": "13",
        "airport_name": "Hornafjordur",
        "city": "Hofn",
        "country": "Iceland",
        "iata": "HFN",
        "icao": "BIHN",
        "latitude": 64.295556,
        "longitude": -15.227222,
        "elevation": 24,
        "utc_offset": 24,
        "_class": "N",
        "timezone": "Atlantic/Reykjavik"
    },
    {
        "_csv_row": "14",
        "airport_name": "Husavik",
        "city": "Husavik",
        "country": "Iceland",
        "iata": "HZK",
        "icao": "BIHU",
        "latitude": 65.952328,
        "longitude": -17.425978,
        "elevation": 48,
        "utc_offset": 48,
        "_class": "N",
        "timezone": "Atlantic/Reykjavik"
    },
    {
        "_csv_row": "15",
        "airport_name": "Isafjordur",
        "city": "Isafjordur",
        "country": "Iceland",
        "iata": "IFJ",
        "icao": "BIIS",
        "latitude": 66.058056,
        "longitude": -23.135278,
        "elevation": 8,
        "utc_offset": 8,
        "_class": "N",
        "timezone": "Atlantic/Reykjavik"
    },
    {
        "_csv_row": "16",
        "airport_name": "Keflavik International Airport",
        "city": "Keflavik",
        "country": "Iceland",
        "iata": "KEF",
        "icao": "BIKF",
        "latitude": 63.985,
        "longitude": -22.605556,
        "elevation": 171,
        "utc_offset": 171,
        "_class": "N",
        "timezone": "Atlantic/Reykjavik"
    },
    {
        "_csv_row": "17",
        "airport_name": "Patreksfjordur",
        "city": "Patreksfjordur",
        "country": "Iceland",
        "iata": "PFJ",
        "icao": "BIPA",
        "latitude": 65.555833,
        "longitude": -23.965,
        "elevation": 11,
        "utc_offset": 11,
        "_class": "N",
        "timezone": "Atlantic/Reykjavik"
    },
    {
        "_csv_row": "18",
        "airport_name": "Reykjavik",
        "city": "Reykjavik",
        "country": "Iceland",
        "iata": "RKV",
        "icao": "BIRK",
        "latitude": 64.13,
        "longitude": -21.940556,
        "elevation": 48,
        "utc_offset": 48,
        "_class": "N",
        "timezone": "Atlantic/Reykjavik"
    },
    {
        "_csv_row": "19",
        "airport_name": "Siglufjordur",
        "city": "Siglufjordur",
        "country": "Iceland",
        "iata": "SIJ",
        "icao": "BISI",
        "latitude": 66.133333,
        "longitude": -18.916667,
        "elevation": 10,
        "utc_offset": 10,
        "_class": "N",
        "timezone": "Atlantic/Reykjavik"
    },
    {
        "_csv_row": "20",
        "airport_name": "Vestmannaeyjar",
        "city": "Vestmannaeyjar",
        "country": "Iceland",
        "iata": "VEY",
        "icao": "BIVM",
        "latitude": 63.424303,
        "longitude": -20.278875,
        "elevation": 326,
        "utc_offset": 326,
        "_class": "N",
        "timezone": "Atlantic/Reykjavik"
    },
    {
        "_csv_row": "21",
        "airport_name": "Sault Ste Marie",
        "city": "Sault Sainte Marie",
        "country": "Canada",
        "iata": "YAM",
        "icao": "CYAM",
        "latitude": 46.485001,
        "longitude": -84.509445,
        "elevation": 630,
        "utc_offset": 630,
        "_class": "A",
        "timezone": "America/Toronto"
    },
    {
        "_csv_row": "22",
        "airport_name": "Winnipeg St Andrews",
        "city": "Winnipeg",
        "country": "Canada",
        "iata": "YAV",
        "icao": "CYAV",
        "latitude": 50.056389,
        "longitude": -97.0325,
        "elevation": 760,
        "utc_offset": 760,
        "_class": "A",
        "timezone": "America/Winnipeg"
    },
    {
        "_csv_row": "23",
        "airport_name": "Shearwater",
        "city": "Halifax",
        "country": "Canada",
        "iata": "YAW",
        "icao": "CYAW",
        "latitude": 44.639721,
        "longitude": -63.499444,
        "elevation": 167,
        "utc_offset": 167,
        "_class": "A",
        "timezone": "America/Halifax"
    },
    {
        "_csv_row": "24",
        "airport_name": "St Anthony",
        "city": "St. Anthony",
        "country": "Canada",
        "iata": "YAY",
        "icao": "CYAY",
        "latitude": 51.391944,
        "longitude": -56.083056,
        "elevation": 108,
        "utc_offset": 108,
        "_class": "A",
        "timezone": "America/St_Johns"
    },
    {
        "_csv_row": "25",
        "airport_name": "Tofino",
        "city": "Tofino",
        "country": "Canada",
        "iata": "YAZ",
        "icao": "CYAZ",
        "latitude": 49.082222,
        "longitude": -125.7725,
        "elevation": 80,
        "utc_offset": 80,
        "_class": "A",
        "timezone": "America/Vancouver"
    },
    {
        "_csv_row": "26",
        "airport_name": "Kugaaruk",
        "city": "Pelly Bay",
        "country": "Canada",
        "iata": "YBB",
        "icao": "CYBB",
        "latitude": 68.534444,
        "longitude": -89.808056,
        "elevation": 56,
        "utc_offset": 56,
        "_class": "A",
        "timezone": "America/Edmonton"
    },
    {
        "_csv_row": "27",
        "airport_name": "Baie Comeau",
        "city": "Baie Comeau",
        "country": "Canada",
        "iata": "YBC",
        "icao": "CYBC",
        "latitude": 49.1325,
        "longitude": -68.204444,
        "elevation": 71,
        "utc_offset": 71,
        "_class": "A",
        "timezone": "America/Toronto"
    },
    {
        "_csv_row": "28",
        "airport_name": "Bagotville",
        "city": "Bagotville",
        "country": "Canada",
        "iata": "YBG",
        "icao": "CYBG",
        "latitude": 48.330555,
        "longitude": -70.996391,
        "elevation": 522,
        "utc_offset": 522,
        "_class": "A",
        "timezone": "America/Toronto"
    },
    {
        "_csv_row": "29",
        "airport_name": "Baker Lake",
        "city": "Baker Lake",
        "country": "Canada",
        "iata": "YBK",
        "icao": "CYBK",
        "latitude": 64.298889,
        "longitude": -96.077778,
        "elevation": 59,
        "utc_offset": 59,
        "_class": "A",
        "timezone": "America/Winnipeg"
    },
    {
        "_csv_row": "30",
        "airport_name": "Campbell River",
        "city": "Campbell River",
        "country": "Canada",
        "iata": "YBL",
        "icao": "CYBL",
        "latitude": 49.950832,
        "longitude": -125.270833,
        "elevation": 346,
        "utc_offset": 346,
        "_class": "A",
        "timezone": "America/Vancouver"
    },
    {
        "_csv_row": "31",
        "airport_name": "Brandon Muni",
        "city": "Brandon",
        "country": "Canada",
        "iata": "YBR",
        "icao": "CYBR",
        "latitude": 49.91,
        "longitude": -99.951944,
        "elevation": 1343,
        "utc_offset": 1343,
        "_class": "A",
        "timezone": "America/Winnipeg"
    },
    {
        "_csv_row": "32",
        "airport_name": "Cambridge Bay",
        "city": "Cambridge Bay",
        "country": "Canada",
        "iata": "YCB",
        "icao": "CYCB",
        "latitude": 69.108055,
        "longitude": -105.138333,
        "elevation": 90,
        "utc_offset": 90,
        "_class": "A",
        "timezone": "America/Edmonton"
    },
    {
        "_csv_row": "33",
        "airport_name": "Nanaimo",
        "city": "Nanaimo",
        "country": "Canada",
        "iata": "YCD",
        "icao": "CYCD",
        "latitude": 49.052333,
        "longitude": -123.870167,
        "elevation": 93,
        "utc_offset": 93,
        "_class": "A",
        "timezone": "America/Vancouver"
    },
    {
        "_csv_row": "34",
        "airport_name": "Castlegar",
        "city": "Castlegar",
        "country": "Canada",
        "iata": "YCG",
        "icao": "CYCG",
        "latitude": 49.296389,
        "longitude": -117.6325,
        "elevation": 1624,
        "utc_offset": 1624,
        "_class": "A",
        "timezone": "America/Vancouver"
    },
    {
        "_csv_row": "35",
        "airport_name": "Miramichi",
        "city": "Chatham",
        "country": "Canada",
        "iata": "YCH",
        "icao": "CYCH",
        "latitude": 47.007778,
        "longitude": -65.449167,
        "elevation": 108,
        "utc_offset": 108,
        "_class": "A",
        "timezone": "America/Halifax"
    },
    {
        "_csv_row": "36",
        "airport_name": "Charlo",
        "city": "Charlo",
        "country": "Canada",
        "iata": "YCL",
        "icao": "CYCL",
        "latitude": 47.990833,
        "longitude": -66.330278,
        "elevation": 132,
        "utc_offset": 132,
        "_class": "A",
        "timezone": "America/Halifax"
    },
    {
        "_csv_row": "37",
        "airport_name": "Kugluktuk",
        "city": "Coppermine",
        "country": "Canada",
        "iata": "YCO",
        "icao": "CYCO",
        "latitude": 67.816667,
        "longitude": -115.143889,
        "elevation": 74,
        "utc_offset": 74,
        "_class": "A",
        "timezone": "America/Edmonton"
    },
    {
        "_csv_row": "38",
        "airport_name": "Coronation",
        "city": "Coronation",
        "country": "Canada",
        "iata": "YCT",
        "icao": "CYCT",
        "latitude": 52.075001,
        "longitude": -111.445278,
        "elevation": 2595,
        "utc_offset": 2595,
        "_class": "A",
        "timezone": "America/Edmonton"
    },
    {
        "_csv_row": "39",
        "airport_name": "Chilliwack",
        "city": "Chilliwack",
        "country": "Canada",
        "iata": "YCW",
        "icao": "CYCW",
        "latitude": 49.152779,
        "longitude": -121.93889,
        "elevation": 32,
        "utc_offset": 32,
        "_class": "A",
        "timezone": "America/Vancouver"
    },
    {
        "_csv_row": "40",
        "airport_name": "Clyde River",
        "city": "Clyde River",
        "country": "Canada",
        "iata": "YCY",
        "icao": "CYCY",
        "latitude": 70.486111,
        "longitude": -68.516667,
        "elevation": 87,
        "utc_offset": 87,
        "_class": "A",
        "timezone": "America/Toronto"
    },
    {
        "_csv_row": "41",
        "airport_name": "Fairmont Hot Springs",
        "city": "Coral Harbour",
        "country": "Canada",
        "iata": "YZS",
        "icao": "CYCZ",
        "latitude": 64.193333,
        "longitude": -83.359444,
        "elevation": 2661,
        "utc_offset": 2661,
        "_class": "A",
        "timezone": "America/Coral_Harbour"
    },
    {
        "_csv_row": "42",
        "airport_name": "Dawson City",
        "city": "Dawson",
        "country": "Canada",
        "iata": "YDA",
        "icao": "CYDA",
        "latitude": 64.043056,
        "longitude": -139.127778,
        "elevation": 1215,
        "utc_offset": 1215,
        "_class": "A",
        "timezone": "America/Vancouver"
    },
    {
        "_csv_row": "43",
        "airport_name": "Burwash",
        "city": "Burwash",
        "country": "Canada",
        "iata": "YDB",
        "icao": "CYDB",
        "latitude": 61.371111,
        "longitude": -139.040556,
        "elevation": 2647,
        "utc_offset": 2647,
        "_class": "A",
        "timezone": "America/Vancouver"
    },
    {
        "_csv_row": "44",
        "airport_name": "Princeton",
        "city": "Princeton",
        "country": "Canada",
        "iata": "YDC",
        "icao": "CYDC",
        "latitude": 49.468056,
        "longitude": -120.511389,
        "elevation": 2298,
        "utc_offset": 2298,
        "_class": "A",
        "timezone": "America/Vancouver"
    },
    {
        "_csv_row": "45",
        "airport_name": "Deer Lake",
        "city": "Deer Lake",
        "country": "Canada",
        "iata": "YDF",
        "icao": "CYDF",
        "latitude": 49.210833,
        "longitude": -57.391388,
        "elevation": 72,
        "utc_offset": 72,
        "_class": "A",
        "timezone": "America/St_Johns"
    },
    {
        "_csv_row": "46",
        "airport_name": "Dease Lake",
        "city": "Dease Lake",
        "country": "Canada",
        "iata": "YDL",
        "icao": "CYDL",
        "latitude": 58.422222,
        "longitude": -130.032222,
        "elevation": 2600,
        "utc_offset": 2600,
        "_class": "A",
        "timezone": "America/Vancouver"
    },
    {
        "_csv_row": "47",
        "airport_name": "Dauphin Barker",
        "city": "Dauphin",
        "country": "Canada",
        "iata": "YDN",
        "icao": "CYDN",
        "latitude": 51.100834,
        "longitude": -100.0525,
        "elevation": 999,
        "utc_offset": 999,
        "_class": "A",
        "timezone": "America/Winnipeg"
    },
    {
        "_csv_row": "48",
        "airport_name": "Dawson Creek",
        "city": "Dawson Creek",
        "country": "Canada",
        "iata": "YDQ",
        "icao": "CYDQ",
        "latitude": 55.742333,
        "longitude": -120.183,
        "elevation": 2148,
        "utc_offset": 2148,
        "_class": "A",
        "timezone": "America/Dawson_Creek"
    },
    {
        "_csv_row": "49",
        "airport_name": "Edmonton Intl",
        "city": "Edmonton",
        "country": "Canada",
        "iata": "YEG",
        "icao": "CYEG",
        "latitude": 53.309723,
        "longitude": -113.579722,
        "elevation": 2373,
        "utc_offset": 2373,
        "_class": "A",
        "timezone": "America/Edmonton"
    },
    {
        "_csv_row": "50",
        "airport_name": "Arviat",
        "city": "Eskimo Point",
        "country": "Canada",
        "iata": "YEK",
        "icao": "CYEK",
        "latitude": 61.094166,
        "longitude": -94.070833,
        "elevation": 32,
        "utc_offset": 32,
        "_class": "A",
        "timezone": "America/Winnipeg"
    },
    {
        "_csv_row": "51",
        "airport_name": "Estevan",
        "city": "Estevan",
        "country": "Canada",
        "iata": "YEN",
        "icao": "CYEN",
        "latitude": 49.210278,
        "longitude": -102.965833,
        "elevation": 1905,
        "utc_offset": 1905,
        "_class": "N",
        "timezone": "America/Regina"
    },
    {
        "_csv_row": "52",
        "airport_name": "Edson",
        "city": "Edson",
        "country": "Canada",
        "iata": "YET",
        "icao": "CYET",
        "latitude": 53.578888,
        "longitude": -116.465,
        "elevation": 3041,
        "utc_offset": 3041,
        "_class": "A",
        "timezone": "America/Edmonton"
    },
    {
        "_csv_row": "53",
        "airport_name": "Eureka",
        "city": "Eureka",
        "country": "Canada",
        "iata": "YEU",
        "icao": "CYEU",
        "latitude": 79.994722,
        "longitude": -85.814167,
        "elevation": 256,
        "utc_offset": 256,
        "_class": "A",
        "timezone": "America/Winnipeg"
    },
    {
        "_csv_row": "54",
        "airport_name": "Inuvik Mike Zubko",
        "city": "Inuvik",
        "country": "Canada",
        "iata": "YEV",
        "icao": "CYEV",
        "latitude": 68.304167,
        "longitude": -133.482778,
        "elevation": 224,
        "utc_offset": 224,
        "_class": "A",
        "timezone": "America/Edmonton"
    },
    {
        "_csv_row": "55",
        "airport_name": "Iqaluit",
        "city": "Iqaluit",
        "country": "Canada",
        "iata": "YFB",
        "icao": "CYFB",
        "latitude": 63.75639,
        "longitude": -68.555832,
        "elevation": 110,
        "utc_offset": 110,
        "_class": "A",
        "timezone": "America/Toronto"
    },
    {
        "_csv_row": "56",
        "airport_name": "Fredericton",
        "city": "Fredericton",
        "country": "Canada",
        "iata": "YFC",
        "icao": "CYFC",
        "latitude": 45.868889,
        "longitude": -66.537222,
        "elevation": 68,
        "utc_offset": 68,
        "_class": "A",
        "timezone": "America/Halifax"
    },
    {
        "_csv_row": "57",
        "airport_name": "Forestville",
        "city": "Forestville",
        "country": "Canada",
        "iata": "",
        "icao": "CYFE",
        "latitude": 48.746111,
        "longitude": -69.097222,
        "elevation": 293,
        "utc_offset": 293,
        "_class": "A",
        "timezone": "America/Toronto"
    },
    {
        "_csv_row": "58",
        "airport_name": "Flin Flon",
        "city": "Flin Flon",
        "country": "Canada",
        "iata": "YFO",
        "icao": "CYFO",
        "latitude": 54.678055,
        "longitude": -101.681667,
        "elevation": 997,
        "utc_offset": 997,
        "_class": "A",
        "timezone": "America/Winnipeg"
    },
    {
        "_csv_row": "59",
        "airport_name": "Fort Resolution",
        "city": "Fort Resolution",
        "country": "Canada",
        "iata": "YFR",
        "icao": "CYFR",
        "latitude": 61.180832,
        "longitude": -113.689722,
        "elevation": 526,
        "utc_offset": 526,
        "_class": "A",
        "timezone": "America/Edmonton"
    },
    {
        "_csv_row": "60",
        "airport_name": "Fort Simpson",
        "city": "Fort Simpson",
        "country": "Canada",
        "iata": "YFS",
        "icao": "CYFS",
        "latitude": 61.760153,
        "longitude": -121.236525,
        "elevation": 555,
        "utc_offset": 555,
        "_class": "A",
        "timezone": "America/Edmonton"
    },
    {
        "_csv_row": "61",
        "airport_name": "Kingston",
        "city": "Kingston",
        "country": "Canada",
        "iata": "YGK",
        "icao": "CYGK",
        "latitude": 44.225277,
        "longitude": -76.596944,
        "elevation": 305,
        "utc_offset": 305,
        "_class": "A",
        "timezone": "America/Toronto"
    },
    {
        "_csv_row": "62",
        "airport_name": "La Grande Riviere",
        "city": "La Grande Riviere",
        "country": "Canada",
        "iata": "YGL",
        "icao": "CYGL",
        "latitude": 53.625278,
        "longitude": -77.704167,
        "elevation": 639,
        "utc_offset": 639,
        "_class": "A",
        "timezone": "America/Toronto"
    },
    {
        "_csv_row": "63",
        "airport_name": "Gaspe",
        "city": "Gaspe",
        "country": "Canada",
        "iata": "YGP",
        "icao": "CYGP",
        "latitude": 48.775278,
        "longitude": -64.478611,
        "elevation": 108,
        "utc_offset": 108,
        "_class": "A",
        "timezone": "America/Toronto"
    },
    {
        "_csv_row": "64",
        "airport_name": "Geraldton Greenstone Regional",
        "city": "Geraldton",
        "country": "Canada",
        "iata": "YGQ",
        "icao": "CYGQ",
        "latitude": 49.778332,
        "longitude": -86.939445,
        "elevation": 1144,
        "utc_offset": 1144,
        "_class": "A",
        "timezone": "America/Toronto"
    },
    {
        "_csv_row": "65",
        "airport_name": "Iles De La Madeleine",
        "city": "Iles De La Madeleine",
        "country": "Canada",
        "iata": "YGR",
        "icao": "CYGR",
        "latitude": 47.424721,
        "longitude": -61.778056,
        "elevation": 35,
        "utc_offset": 35,
        "_class": "A",
        "timezone": "America/Toronto"
    },
    {
        "_csv_row": "66",
        "airport_name": "Hudson Bay",
        "city": "Hudson Bay",
        "country": "Canada",
        "iata": "YHB",
        "icao": "CYHB",
        "latitude": 52.816666,
        "longitude": -102.31139,
        "elevation": 1175,
        "utc_offset": 1175,
        "_class": "N",
        "timezone": "America/Regina"
    },
    {
        "_csv_row": "67",
        "airport_name": "Dryden Rgnl",
        "city": "Dryden",
        "country": "Canada",
        "iata": "YHD",
        "icao": "CYHD",
        "latitude": 49.831667,
        "longitude": -92.744167,
        "elevation": 1354,
        "utc_offset": 1354,
        "_class": "A",
        "timezone": "America/Winnipeg"
    },
    {
        "_csv_row": "68",
        "airport_name": "Ulukhaktok Holman",
        "city": "Holman Island",
        "country": "Canada",
        "iata": "YHI",
        "icao": "CYHI",
        "latitude": 70.762778,
        "longitude": -117.806111,
        "elevation": 117,
        "utc_offset": 117,
        "_class": "A",
        "timezone": "America/Edmonton"
    },
    {
        "_csv_row": "69",
        "airport_name": "Gjoa Haven",
        "city": "Gjoa Haven",
        "country": "Canada",
        "iata": "YHK",
        "icao": "CYHK",
        "latitude": 68.635556,
        "longitude": -95.849722,
        "elevation": 152,
        "utc_offset": 152,
        "_class": "A",
        "timezone": "America/Edmonton"
    },
    {
        "_csv_row": "70",
        "airport_name": "Hamilton",
        "city": "Hamilton",
        "country": "Canada",
        "iata": "YHM",
        "icao": "CYHM",
        "latitude": 43.173611,
        "longitude": -79.935,
        "elevation": 780,
        "utc_offset": 780,
        "_class": "A",
        "timezone": "America/Toronto"
    },
    {
        "_csv_row": "71",
        "airport_name": "St Hubert",
        "city": "Montreal",
        "country": "Canada",
        "iata": "YHU",
        "icao": "CYHU",
        "latitude": 45.5175,
        "longitude": -73.416944,
        "elevation": 90,
        "utc_offset": 90,
        "_class": "A",
        "timezone": "America/Toronto"
    },
    {
        "_csv_row": "72",
        "airport_name": "Hay River",
        "city": "Hay River",
        "country": "Canada",
        "iata": "YHY",
        "icao": "CYHY",
        "latitude": 60.839722,
        "longitude": -115.782778,
        "elevation": 543,
        "utc_offset": 543,
        "_class": "A",
        "timezone": "America/Edmonton"
    },
    {
        "_csv_row": "73",
        "airport_name": "Halifax Intl",
        "city": "Halifax",
        "country": "Canada",
        "iata": "YHZ",
        "icao": "CYHZ",
        "latitude": 44.880833,
        "longitude": -63.50861,
        "elevation": 477,
        "utc_offset": 477,
        "_class": "A",
        "timezone": "America/Halifax"
    },
    {
        "_csv_row": "74",
        "airport_name": "Atikokan Muni",
        "city": "Atikokan",
        "country": "Canada",
        "iata": "YIB",
        "icao": "CYIB",
        "latitude": 48.773888,
        "longitude": -91.638611,
        "elevation": 1408,
        "utc_offset": 1408,
        "_class": "A",
        "timezone": "America/Coral_Harbour"
    },
    {
        "_csv_row": "75",
        "airport_name": "Pond Inlet",
        "city": "Pond Inlet",
        "country": "Canada",
        "iata": "YIO",
        "icao": "CYIO",
        "latitude": 72.683334,
        "longitude": -77.966667,
        "elevation": 181,
        "utc_offset": 181,
        "_class": "A",
        "timezone": "America/Toronto"
    },
    {
        "_csv_row": "76",
        "airport_name": "St Jean",
        "city": "St. Jean",
        "country": "Canada",
        "iata": "YJN",
        "icao": "CYJN",
        "latitude": 45.294445,
        "longitude": -73.281111,
        "elevation": 136,
        "utc_offset": 136,
        "_class": "A",
        "timezone": "America/Toronto"
    },
    {
        "_csv_row": "77",
        "airport_name": "Stephenville",
        "city": "Stephenville",
        "country": "Canada",
        "iata": "YJT",
        "icao": "CYJT",
        "latitude": 48.544167,
        "longitude": -58.549999,
        "elevation": 80,
        "utc_offset": 80,
        "_class": "A",
        "timezone": "America/St_Johns"
    },
    {
        "_csv_row": "78",
        "airport_name": "Kamloops",
        "city": "Kamloops",
        "country": "Canada",
        "iata": "YKA",
        "icao": "CYKA",
        "latitude": 50.702222,
        "longitude": -120.444444,
        "elevation": 1133,
        "utc_offset": 1133,
        "_class": "A",
        "timezone": "America/Vancouver"
    },
    {
        "_csv_row": "79",
        "airport_name": "Waterloo",
        "city": "Waterloo",
        "country": "Canada",
        "iata": "YKF",
        "icao": "CYKF",
        "latitude": 43.460833,
        "longitude": -80.378611,
        "elevation": 1054,
        "utc_offset": 1054,
        "_class": "A",
        "timezone": "America/Toronto"
    },
    {
        "_csv_row": "80",
        "airport_name": "Schefferville",
        "city": "Schefferville",
        "country": "Canada",
        "iata": "YKL",
        "icao": "CYKL",
        "latitude": 54.805278,
        "longitude": -66.805278,
        "elevation": 1709,
        "utc_offset": 1709,
        "_class": "A",
        "timezone": "America/Toronto"
    },
    {
        "_csv_row": "81",
        "airport_name": "Kindersley",
        "city": "Kindersley",
        "country": "Canada",
        "iata": "YKY",
        "icao": "CYKY",
        "latitude": 51.5175,
        "longitude": -109.180833,
        "elevation": 2277,
        "utc_offset": 2277,
        "_class": "N",
        "timezone": "America/Regina"
    },
    {
        "_csv_row": "82",
        "airport_name": "Buttonville Muni",
        "city": "Toronto",
        "country": "Canada",
        "iata": "YKZ",
        "icao": "CYKZ",
        "latitude": 43.862221,
        "longitude": -79.37,
        "elevation": 650,
        "utc_offset": 650,
        "_class": "A",
        "timezone": "America/Toronto"
    },
    {
        "_csv_row": "83",
        "airport_name": "Chapleau",
        "city": "Chapleau",
        "country": "Canada",
        "iata": "YLD",
        "icao": "CYLD",
        "latitude": 47.82,
        "longitude": -83.346667,
        "elevation": 1470,
        "utc_offset": 1470,
        "_class": "A",
        "timezone": "America/Toronto"
    },
    {
        "_csv_row": "84",
        "airport_name": "Meadow Lake",
        "city": "Meadow Lake",
        "country": "Canada",
        "iata": "YLJ",
        "icao": "CYLJ",
        "latitude": 54.125278,
        "longitude": -108.522778,
        "elevation": 1576,
        "utc_offset": 1576,
        "_class": "N",
        "timezone": "America/Regina"
    },
    {
        "_csv_row": "85",
        "airport_name": "Lloydminster",
        "city": "Lloydminster",
        "country": "Canada",
        "iata": "YLL",
        "icao": "CYLL",
        "latitude": 53.309166,
        "longitude": -110.0725,
        "elevation": 2193,
        "utc_offset": 2193,
        "_class": "A",
        "timezone": "America/Edmonton"
    },
    {
        "_csv_row": "86",
        "airport_name": "Alert",
        "city": "Alert",
        "country": "Canada",
        "iata": "YLT",
        "icao": "CYLT",
        "latitude": 82.517778,
        "longitude": -62.280556,
        "elevation": 100,
        "utc_offset": 100,
        "_class": "A",
        "timezone": "America/Toronto"
    }
]